[
  {
    "id": "test-1770498409408-0",
    "name": "Emily Martinez",
    "address": "6414 Pine Ave",
    "city": "Henrietta",
    "state": "NY",
    "zip": "14467",
    "phone": "(636) 576-7783",
    "estimatedBill": 159,
    "lat": 43.0559047,
    "lng": -77.6153819,
    "status": "unclaimed",
    "solarScore": 96,
    "solarCategory": "great",
    "solarSunshineHours": 1445,
    "solarMaxPanels": 31,
    "hasSouthFacing": false,
    "createdAt": "2026-02-07T21:06:49.408Z"
  },
  {
    "id": "test-1770498409409-1",
    "name": "David Miller",
    "address": "949 Maple Rd",
    "city": "Henrietta",
    "state": "NY",
    "zip": "14467",
    "phone": "(948) 767-9958",
    "estimatedBill": 158,
    "lat": 43.0555706,
    "lng": -77.6158143,
    "status": "unclaimed",
    "solarScore": 72,
    "solarCategory": "good",
    "solarSunshineHours": 1412,
    "solarMaxPanels": 37,
    "hasSouthFacing": true,
    "createdAt": "2026-02-07T21:06:49.409Z"
  },
  {
    "id": "test-1770498409409-2",
    "name": "Tom Williams",
    "address": "3919 Willow Ave",
    "city": "Rochester",
    "state": "NY",
    "zip": "14611",
    "phone": "(349) 616-1256",
    "estimatedBill": 110,
    "lat": 43.1635309,
    "lng": -77.6208593,
    "status": "unclaimed",
    "solarScore": 58,
    "solarCategory": "good",
    "solarSunshineHours": 1456,
    "solarMaxPanels": 27,
    "hasSouthFacing": true,
    "createdAt": "2026-02-07T21:06:49.409Z"
  },
  {
    "id": "test-1770498409409-3",
    "name": "Emily Davis",
    "address": "7842 Ash Rd",
    "city": "Brighton",
    "state": "NY",
    "zip": "14618",
    "phone": "(298) 176-8247",
    "estimatedBill": 157,
    "lat": 43.1307852,
    "lng": -77.5731301,
    "status": "unclaimed",
    "solarScore": 52,
    "solarCategory": "good",
    "solarSunshineHours": 1470,
    "solarMaxPanels": 27,
    "hasSouthFacing": false,
    "createdAt": "2026-02-07T21:06:49.409Z"
  },
  {
    "id": "test-1770498409409-4",
    "name": "Jane Smith",
    "address": "414 Elm St",
    "city": "Henrietta",
    "state": "NY",
    "zip": "14467",
    "phone": "(915) 267-2019",
    "estimatedBill": 130,
    "lat": 43.0526445,
    "lng": -77.6102907,
    "status": "unclaimed",
    "solarScore": 26,
    "solarCategory": "solid",
    "solarSunshineHours": 1290,
    "solarMaxPanels": 17,
    "hasSouthFacing": true,
    "createdAt": "2026-02-07T21:06:49.409Z"
  },
  {
    "id": "test-1770498409409-5",
    "name": "John Jones",
    "address": "4095 Elm St",
    "city": "Henrietta",
    "state": "NY",
    "zip": "14467",
    "phone": "(982) 183-9251",
    "estimatedBill": 166,
    "lat": 43.051,
    "lng": -77.6109765,
    "status": "unclaimed",
    "solarScore": 89,
    "solarCategory": "great",
    "solarSunshineHours": 1228,
    "solarMaxPanels": 19,
    "hasSouthFacing": true,
    "createdAt": "2026-02-07T21:06:49.409Z"
  },
  {
    "id": "test-1770498409409-6",
    "name": "Mike Johnson",
    "address": "7319 Cedar Ln",
    "city": "Pittsford",
    "state": "NY",
    "zip": "14534",
    "phone": "(657) 132-6032",
    "estimatedBill": 75,
    "lat": 43.0914788,
    "lng": -77.5153088,
    "status": "unclaimed",
    "solarScore": 91,
    "solarCategory": "great",
    "solarSunshineHours": 1473,
    "solarMaxPanels": 15,
    "hasSouthFacing": true,
    "createdAt": "2026-02-07T21:06:49.409Z"
  },
  {
    "id": "test-1770498409409-7",
    "name": "Tom Brown",
    "address": "1577 Willow Dr",
    "city": "Pittsford",
    "state": "NY",
    "zip": "14534",
    "phone": "(444) 554-2225",
    "estimatedBill": 235,
    "lat": 43.0956397,
    "lng": -77.520275,
    "status": "unclaimed",
    "solarScore": 62,
    "solarCategory": "good",
    "solarSunshineHours": 1233,
    "solarMaxPanels": 37,
    "hasSouthFacing": false,
    "createdAt": "2026-02-07T21:06:49.409Z"
  },
  {
    "id": "test-1770498409409-8",
    "name": "Tom Rodriguez",
    "address": "7081 Ash Dr",
    "city": "Rochester",
    "state": "NY",
    "zip": "14613",
    "phone": "(672) 223-4714",
    "estimatedBill": 242,
    "lat": 43.1662309,
    "lng": -77.6257796,
    "status": "unclaimed",
    "solarScore": 1,
    "solarCategory": "poor",
    "solarSunshineHours": 1283,
    "solarMaxPanels": 29,
    "hasSouthFacing": true,
    "createdAt": "2026-02-07T21:06:49.409Z"
  },
  {
    "id": "test-1770498409409-9",
    "name": "Sarah Williams",
    "address": "8651 Elm St",
    "city": "Rochester",
    "state": "NY",
    "zip": "14605",
    "phone": "(812) 225-5083",
    "estimatedBill": 118,
    "lat": 43.1579956,
    "lng": -77.6098002,
    "status": "unclaimed",
    "solarScore": 74,
    "solarCategory": "good",
    "solarSunshineHours": 1215,
    "solarMaxPanels": 16,
    "hasSouthFacing": true,
    "createdAt": "2026-02-07T21:06:49.409Z"
  },
  {
    "id": "test-1770498409409-10",
    "name": "Chris Johnson",
    "address": "9058 Maple Dr",
    "city": "Rochester",
    "state": "NY",
    "zip": "14608",
    "phone": "(614) 914-1786",
    "estimatedBill": 107,
    "lat": 43.1600021,
    "lng": -77.6168222,
    "status": "unclaimed",
    "solarScore": 87,
    "solarCategory": "great",
    "solarSunshineHours": 1356,
    "solarMaxPanels": 16,
    "hasSouthFacing": true,
    "createdAt": "2026-02-07T21:06:49.409Z"
  },
  {
    "id": "test-1770498409409-11",
    "name": "Mike Martinez",
    "address": "7839 Main St",
    "city": "Rochester",
    "state": "NY",
    "zip": "14604",
    "phone": "(233) 878-4988",
    "estimatedBill": 61,
    "lat": 43.1571096,
    "lng": -77.6083535,
    "status": "unclaimed",
    "solarScore": 81,
    "solarCategory": "great",
    "solarSunshineHours": 1317,
    "solarMaxPanels": 28,
    "hasSouthFacing": true,
    "createdAt": "2026-02-07T21:06:49.409Z"
  },
  {
    "id": "test-1770498409409-12",
    "name": "David Jones",
    "address": "4365 Willow Dr",
    "city": "Pittsford",
    "state": "NY",
    "zip": "14534",
    "phone": "(914) 253-7314",
    "estimatedBill": 105,
    "lat": 43.0954384,
    "lng": -77.5196579,
    "status": "unclaimed",
    "solarScore": 37,
    "solarCategory": "solid",
    "solarSunshineHours": 1367,
    "solarMaxPanels": 11,
    "hasSouthFacing": true,
    "createdAt": "2026-02-07T21:06:49.409Z"
  },
  {
    "id": "test-1770498409409-13",
    "name": "Jane Williams",
    "address": "604 Main St",
    "city": "Rochester",
    "state": "NY",
    "zip": "14604",
    "phone": "(947) 667-2274",
    "estimatedBill": 114,
    "lat": 43.1559791,
    "lng": -77.6082786,
    "status": "unclaimed",
    "solarScore": 81,
    "solarCategory": "great",
    "solarSunshineHours": 1491,
    "solarMaxPanels": 35,
    "hasSouthFacing": true,
    "createdAt": "2026-02-07T21:06:49.409Z"
  },
  {
    "id": "test-1770498409409-14",
    "name": "Emily Williams",
    "address": "8465 Spruce Ave",
    "city": "Brighton",
    "state": "NY",
    "zip": "14618",
    "phone": "(991) 966-4527",
    "estimatedBill": 140,
    "lat": 43.1289876,
    "lng": -77.5706669,
    "status": "unclaimed",
    "solarScore": 82,
    "solarCategory": "great",
    "solarSunshineHours": 1343,
    "solarMaxPanels": 10,
    "hasSouthFacing": false,
    "createdAt": "2026-02-07T21:06:49.409Z"
  },
  {
    "id": "test-1770498409409-15",
    "name": "Amy Williams",
    "address": "5334 Chestnut St",
    "city": "Brighton",
    "state": "NY",
    "zip": "14618",
    "phone": "(796) 920-6601",
    "estimatedBill": 239,
    "lat": 43.1329695,
    "lng": -77.5742308,
    "status": "unclaimed",
    "solarScore": 77,
    "solarCategory": "great",
    "solarSunshineHours": 1325,
    "solarMaxPanels": 12,
    "hasSouthFacing": true,
    "createdAt": "2026-02-07T21:06:49.409Z"
  },
  {
    "id": "test-1770498409409-16",
    "name": "John Garcia",
    "address": "2785 Birch St",
    "city": "Pittsford",
    "state": "NY",
    "zip": "14534",
    "phone": "(386) 259-9345",
    "estimatedBill": 106,
    "lat": 43.0922551,
    "lng": -77.5172919,
    "status": "unclaimed",
    "solarScore": 50,
    "solarCategory": "good",
    "solarSunshineHours": 1460,
    "solarMaxPanels": 11,
    "hasSouthFacing": true,
    "createdAt": "2026-02-07T21:06:49.409Z"
  },
  {
    "id": "test-1770498409409-17",
    "name": "Amy Miller",
    "address": "8133 Spruce Rd",
    "city": "Rochester",
    "state": "NY",
    "zip": "14612",
    "phone": "(288) 790-8514",
    "estimatedBill": 125,
    "lat": 43.1645369,
    "lng": -77.623726,
    "status": "unclaimed",
    "solarScore": 98,
    "solarCategory": "great",
    "solarSunshineHours": 1389,
    "solarMaxPanels": 27,
    "hasSouthFacing": true,
    "createdAt": "2026-02-07T21:06:49.409Z"
  },
  {
    "id": "test-1770498409409-18",
    "name": "Chris Miller",
    "address": "7134 Chestnut St",
    "city": "Brighton",
    "state": "NY",
    "zip": "14618",
    "phone": "(725) 694-3232",
    "estimatedBill": 137,
    "lat": 43.131719,
    "lng": -77.5753626,
    "status": "unclaimed",
    "solarScore": 33,
    "solarCategory": "solid",
    "solarSunshineHours": 1402,
    "solarMaxPanels": 29,
    "hasSouthFacing": true,
    "createdAt": "2026-02-07T21:06:49.409Z"
  },
  {
    "id": "test-1770498409409-19",
    "name": "John Rodriguez",
    "address": "4867 Ash Rd",
    "city": "Brighton",
    "state": "NY",
    "zip": "14618",
    "phone": "(176) 980-8993",
    "estimatedBill": 117,
    "lat": 43.1307895,
    "lng": -77.5729634,
    "status": "unclaimed",
    "solarScore": 52,
    "solarCategory": "good",
    "solarSunshineHours": 1403,
    "solarMaxPanels": 26,
    "hasSouthFacing": false,
    "createdAt": "2026-02-07T21:06:49.409Z"
  },
  {
    "id": "test-1770498409409-20",
    "name": "Tom Jones",
    "address": "1525 Willow Ave",
    "city": "Rochester",
    "state": "NY",
    "zip": "14611",
    "phone": "(278) 153-7993",
    "estimatedBill": 188,
    "lat": 43.1635414,
    "lng": -77.6222136,
    "status": "unclaimed",
    "solarScore": 30,
    "solarCategory": "solid",
    "solarSunshineHours": 1283,
    "solarMaxPanels": 33,
    "hasSouthFacing": false,
    "createdAt": "2026-02-07T21:06:49.409Z"
  },
  {
    "id": "test-1770498409409-21",
    "name": "Lisa Johnson",
    "address": "5850 Ash Rd",
    "city": "Brighton",
    "state": "NY",
    "zip": "14618",
    "phone": "(578) 976-5086",
    "estimatedBill": 96,
    "lat": 43.1308819,
    "lng": -77.5720821,
    "status": "unclaimed",
    "solarScore": 34,
    "solarCategory": "solid",
    "solarSunshineHours": 1343,
    "solarMaxPanels": 16,
    "hasSouthFacing": true,
    "createdAt": "2026-02-07T21:06:49.409Z"
  },
  {
    "id": "test-1770498409409-22",
    "name": "Lisa Garcia",
    "address": "3275 Oak Ave",
    "city": "Rochester",
    "state": "NY",
    "zip": "14606",
    "phone": "(144) 533-4846",
    "estimatedBill": 135,
    "lat": 43.1580551,
    "lng": -77.6128709,
    "status": "unclaimed",
    "solarScore": 28,
    "solarCategory": "solid",
    "solarSunshineHours": 1452,
    "solarMaxPanels": 21,
    "hasSouthFacing": false,
    "createdAt": "2026-02-07T21:06:49.409Z"
  },
  {
    "id": "test-1770498409409-23",
    "name": "Chris Miller",
    "address": "8943 Cedar Ln",
    "city": "Pittsford",
    "state": "NY",
    "zip": "14534",
    "phone": "(879) 309-6648",
    "estimatedBill": 142,
    "lat": 43.0923512,
    "lng": -77.5151106,
    "status": "unclaimed",
    "solarScore": 18,
    "solarCategory": "poor",
    "solarSunshineHours": 1217,
    "solarMaxPanels": 31,
    "hasSouthFacing": false,
    "createdAt": "2026-02-07T21:06:49.409Z"
  },
  {
    "id": "test-1770498409409-24",
    "name": "David Smith",
    "address": "6194 Elm St",
    "city": "Henrietta",
    "state": "NY",
    "zip": "14467",
    "phone": "(953) 774-6896",
    "estimatedBill": 76,
    "lat": 43.0515342,
    "lng": -77.6104905,
    "status": "unclaimed",
    "solarScore": 66,
    "solarCategory": "good",
    "solarSunshineHours": 1481,
    "solarMaxPanels": 28,
    "hasSouthFacing": true,
    "createdAt": "2026-02-07T21:06:49.409Z"
  },
  {
    "id": "test-1770498409409-25",
    "name": "Amy Jones",
    "address": "2883 Spruce Rd",
    "city": "Rochester",
    "state": "NY",
    "zip": "14612",
    "phone": "(913) 783-4247",
    "estimatedBill": 122,
    "lat": 43.1645623,
    "lng": -77.6239252,
    "status": "unclaimed",
    "solarScore": 33,
    "solarCategory": "solid",
    "solarSunshineHours": 1255,
    "solarMaxPanels": 10,
    "hasSouthFacing": true,
    "createdAt": "2026-02-07T21:06:49.409Z"
  },
  {
    "id": "test-1770498409409-26",
    "name": "Emily Martinez",
    "address": "1767 Maple Rd",
    "city": "Henrietta",
    "state": "NY",
    "zip": "14467",
    "phone": "(373) 726-4100",
    "estimatedBill": 246,
    "lat": 43.0573427,
    "lng": -77.6165808,
    "status": "unclaimed",
    "solarScore": 76,
    "solarCategory": "great",
    "solarSunshineHours": 1329,
    "solarMaxPanels": 25,
    "hasSouthFacing": false,
    "createdAt": "2026-02-07T21:06:49.409Z"
  },
  {
    "id": "test-1770498409409-27",
    "name": "Amy Jones",
    "address": "263 Cedar Ln",
    "city": "Pittsford",
    "state": "NY",
    "zip": "14534",
    "phone": "(634) 106-2204",
    "estimatedBill": 203,
    "lat": 43.0917209,
    "lng": -77.5163316,
    "status": "unclaimed",
    "solarScore": 10,
    "solarCategory": "poor",
    "solarSunshineHours": 1480,
    "solarMaxPanels": 31,
    "hasSouthFacing": true,
    "createdAt": "2026-02-07T21:06:49.409Z"
  },
  {
    "id": "test-1770498409409-28",
    "name": "John Garcia",
    "address": "2897 Maple Rd",
    "city": "Henrietta",
    "state": "NY",
    "zip": "14467",
    "phone": "(304) 790-7081",
    "estimatedBill": 225,
    "lat": 43.0570405,
    "lng": -77.6171546,
    "status": "unclaimed",
    "solarScore": 82,
    "solarCategory": "great",
    "solarSunshineHours": 1444,
    "solarMaxPanels": 25,
    "hasSouthFacing": true,
    "createdAt": "2026-02-07T21:06:49.409Z"
  },
  {
    "id": "test-1770498409409-29",
    "name": "Lisa Smith",
    "address": "2250 Elm St",
    "city": "Henrietta",
    "state": "NY",
    "zip": "14467",
    "phone": "(662) 628-2376",
    "estimatedBill": 117,
    "lat": 43.0516505,
    "lng": -77.6097384,
    "status": "unclaimed",
    "solarScore": 61,
    "solarCategory": "good",
    "solarSunshineHours": 1331,
    "solarMaxPanels": 30,
    "hasSouthFacing": true,
    "createdAt": "2026-02-07T21:06:49.409Z"
  },
  {
    "id": "test-1770498409409-30",
    "name": "David Martinez",
    "address": "7090 Willow Ave",
    "city": "Rochester",
    "state": "NY",
    "zip": "14611",
    "phone": "(594) 217-9460",
    "estimatedBill": 231,
    "lat": 43.1651778,
    "lng": -77.6207104,
    "status": "unclaimed",
    "solarScore": 58,
    "solarCategory": "good",
    "solarSunshineHours": 1343,
    "solarMaxPanels": 11,
    "hasSouthFacing": true,
    "createdAt": "2026-02-07T21:06:49.409Z"
  },
  {
    "id": "test-1770498409409-31",
    "name": "Lisa Davis",
    "address": "1487 Willow Ave",
    "city": "Rochester",
    "state": "NY",
    "zip": "14611",
    "phone": "(829) 520-8911",
    "estimatedBill": 130,
    "lat": 43.163511,
    "lng": -77.6216841,
    "status": "unclaimed",
    "solarScore": 87,
    "solarCategory": "great",
    "solarSunshineHours": 1488,
    "solarMaxPanels": 17,
    "hasSouthFacing": true,
    "createdAt": "2026-02-07T21:06:49.409Z"
  },
  {
    "id": "test-1770498409409-32",
    "name": "John Jones",
    "address": "7587 Elm St",
    "city": "Henrietta",
    "state": "NY",
    "zip": "14467",
    "phone": "(437) 369-3203",
    "estimatedBill": 167,
    "lat": 43.0518721,
    "lng": -77.6099257,
    "status": "unclaimed",
    "solarScore": 47,
    "solarCategory": "solid",
    "solarSunshineHours": 1355,
    "solarMaxPanels": 38,
    "hasSouthFacing": true,
    "createdAt": "2026-02-07T21:06:49.409Z"
  },
  {
    "id": "test-1770498409409-33",
    "name": "Amy Davis",
    "address": "9071 Ash Rd",
    "city": "Brighton",
    "state": "NY",
    "zip": "14618",
    "phone": "(199) 445-2773",
    "estimatedBill": 191,
    "lat": 43.129527,
    "lng": -77.572594,
    "status": "unclaimed",
    "solarScore": 50,
    "solarCategory": "good",
    "solarSunshineHours": 1288,
    "solarMaxPanels": 34,
    "hasSouthFacing": true,
    "createdAt": "2026-02-07T21:06:49.409Z"
  },
  {
    "id": "test-1770498409409-34",
    "name": "John Rodriguez",
    "address": "3113 Elm St",
    "city": "Henrietta",
    "state": "NY",
    "zip": "14467",
    "phone": "(354) 854-1231",
    "estimatedBill": 233,
    "lat": 43.0515482,
    "lng": -77.6090214,
    "status": "unclaimed",
    "solarScore": 46,
    "solarCategory": "solid",
    "solarSunshineHours": 1455,
    "solarMaxPanels": 23,
    "hasSouthFacing": false,
    "createdAt": "2026-02-07T21:06:49.409Z"
  },
  {
    "id": "test-1770498409409-35",
    "name": "Tom Jones",
    "address": "2395 Spruce Ave",
    "city": "Brighton",
    "state": "NY",
    "zip": "14618",
    "phone": "(655) 232-2975",
    "estimatedBill": 146,
    "lat": 43.1274888,
    "lng": -77.5699817,
    "status": "unclaimed",
    "solarScore": 29,
    "solarCategory": "solid",
    "solarSunshineHours": 1363,
    "solarMaxPanels": 23,
    "hasSouthFacing": false,
    "createdAt": "2026-02-07T21:06:49.409Z"
  },
  {
    "id": "test-1770498409409-36",
    "name": "Mike Johnson",
    "address": "538 Elm St",
    "city": "Henrietta",
    "state": "NY",
    "zip": "14467",
    "phone": "(797) 326-8771",
    "estimatedBill": 80,
    "lat": 43.0512027,
    "lng": -77.6092654,
    "status": "unclaimed",
    "solarScore": 56,
    "solarCategory": "good",
    "solarSunshineHours": 1266,
    "solarMaxPanels": 11,
    "hasSouthFacing": true,
    "createdAt": "2026-02-07T21:06:49.409Z"
  },
  {
    "id": "test-1770498409409-37",
    "name": "Jane Smith",
    "address": "746 Willow Dr",
    "city": "Pittsford",
    "state": "NY",
    "zip": "14534",
    "phone": "(266) 660-3222",
    "estimatedBill": 50,
    "lat": 43.0944305,
    "lng": -77.5201038,
    "status": "unclaimed",
    "solarScore": 82,
    "solarCategory": "great",
    "solarSunshineHours": 1385,
    "solarMaxPanels": 26,
    "hasSouthFacing": false,
    "createdAt": "2026-02-07T21:06:49.409Z"
  },
  {
    "id": "test-1770498409409-38",
    "name": "Lisa Garcia",
    "address": "3693 Chestnut St",
    "city": "Brighton",
    "state": "NY",
    "zip": "14618",
    "phone": "(393) 877-7681",
    "estimatedBill": 242,
    "lat": 43.1327841,
    "lng": -77.5757693,
    "status": "unclaimed",
    "solarScore": 88,
    "solarCategory": "great",
    "solarSunshineHours": 1338,
    "solarMaxPanels": 18,
    "hasSouthFacing": true,
    "createdAt": "2026-02-07T21:06:49.409Z"
  },
  {
    "id": "test-1770498409409-39",
    "name": "Sarah Rodriguez",
    "address": "7150 Elm St",
    "city": "Rochester",
    "state": "NY",
    "zip": "14605",
    "phone": "(720) 620-8910",
    "estimatedBill": 124,
    "lat": 43.1574738,
    "lng": -77.6104295,
    "status": "unclaimed",
    "solarScore": 68,
    "solarCategory": "good",
    "solarSunshineHours": 1213,
    "solarMaxPanels": 10,
    "hasSouthFacing": true,
    "createdAt": "2026-02-07T21:06:49.409Z"
  },
  {
    "id": "test-1770498409409-40",
    "name": "Lisa Williams",
    "address": "1284 Maple Rd",
    "city": "Henrietta",
    "state": "NY",
    "zip": "14467",
    "phone": "(580) 590-6136",
    "estimatedBill": 179,
    "lat": 43.0573,
    "lng": -77.6171989,
    "status": "unclaimed",
    "solarScore": 80,
    "solarCategory": "great",
    "solarSunshineHours": 1231,
    "solarMaxPanels": 10,
    "hasSouthFacing": true,
    "createdAt": "2026-02-07T21:06:49.409Z"
  },
  {
    "id": "test-1770498409409-41",
    "name": "Jane Martinez",
    "address": "1193 Spruce Ave",
    "city": "Brighton",
    "state": "NY",
    "zip": "14618",
    "phone": "(696) 715-8444",
    "estimatedBill": 73,
    "lat": 43.1277426,
    "lng": -77.5707719,
    "status": "unclaimed",
    "solarScore": 62,
    "solarCategory": "good",
    "solarSunshineHours": 1412,
    "solarMaxPanels": 36,
    "hasSouthFacing": true,
    "createdAt": "2026-02-07T21:06:49.409Z"
  },
  {
    "id": "test-1770498409409-42",
    "name": "John Martinez",
    "address": "6119 Birch St",
    "city": "Rochester",
    "state": "NY",
    "zip": "14610",
    "phone": "(100) 362-1371",
    "estimatedBill": 126,
    "lat": 43.1622543,
    "lng": -77.6199743,
    "status": "unclaimed",
    "solarScore": 19,
    "solarCategory": "poor",
    "solarSunshineHours": 1258,
    "solarMaxPanels": 28,
    "hasSouthFacing": true,
    "createdAt": "2026-02-07T21:06:49.409Z"
  },
  {
    "id": "test-1770498409409-43",
    "name": "David Williams",
    "address": "4267 Main St",
    "city": "Rochester",
    "state": "NY",
    "zip": "14604",
    "phone": "(189) 249-9877",
    "estimatedBill": 71,
    "lat": 43.1559318,
    "lng": -77.6082848,
    "status": "unclaimed",
    "solarScore": 90,
    "solarCategory": "great",
    "solarSunshineHours": 1226,
    "solarMaxPanels": 24,
    "hasSouthFacing": true,
    "createdAt": "2026-02-07T21:06:49.409Z"
  },
  {
    "id": "test-1770498409409-44",
    "name": "Lisa Rodriguez",
    "address": "6849 Willow Dr",
    "city": "Pittsford",
    "state": "NY",
    "zip": "14534",
    "phone": "(551) 565-6066",
    "estimatedBill": 202,
    "lat": 43.0940854,
    "lng": -77.5212656,
    "status": "unclaimed",
    "solarScore": 89,
    "solarCategory": "great",
    "solarSunshineHours": 1218,
    "solarMaxPanels": 35,
    "hasSouthFacing": false,
    "createdAt": "2026-02-07T21:06:49.409Z"
  },
  {
    "id": "test-1770498409409-45",
    "name": "Mike Smith",
    "address": "384 Cedar Ln",
    "city": "Pittsford",
    "state": "NY",
    "zip": "14534",
    "phone": "(360) 190-7820",
    "estimatedBill": 91,
    "lat": 43.0918377,
    "lng": -77.5149198,
    "status": "unclaimed",
    "solarScore": 63,
    "solarCategory": "good",
    "solarSunshineHours": 1319,
    "solarMaxPanels": 11,
    "hasSouthFacing": true,
    "createdAt": "2026-02-07T21:06:49.409Z"
  },
  {
    "id": "test-1770498409409-46",
    "name": "Amy Martinez",
    "address": "5773 Birch St",
    "city": "Pittsford",
    "state": "NY",
    "zip": "14534",
    "phone": "(677) 154-2134",
    "estimatedBill": 69,
    "lat": 43.0934541,
    "lng": -77.5171458,
    "status": "unclaimed",
    "solarScore": 40,
    "solarCategory": "solid",
    "solarSunshineHours": 1208,
    "solarMaxPanels": 23,
    "hasSouthFacing": true,
    "createdAt": "2026-02-07T21:06:49.409Z"
  },
  {
    "id": "test-1770498409409-47",
    "name": "John Rodriguez",
    "address": "6594 Willow Ave",
    "city": "Rochester",
    "state": "NY",
    "zip": "14611",
    "phone": "(326) 283-7989",
    "estimatedBill": 90,
    "lat": 43.165228,
    "lng": -77.6205066,
    "status": "unclaimed",
    "solarScore": 53,
    "solarCategory": "good",
    "solarSunshineHours": 1404,
    "solarMaxPanels": 10,
    "hasSouthFacing": true,
    "createdAt": "2026-02-07T21:06:49.409Z"
  },
  {
    "id": "test-1770498409409-48",
    "name": "Amy Miller",
    "address": "8766 Ash Dr",
    "city": "Rochester",
    "state": "NY",
    "zip": "14613",
    "phone": "(203) 149-6749",
    "estimatedBill": 123,
    "lat": 43.1655957,
    "lng": -77.6249621,
    "status": "unclaimed",
    "solarScore": 42,
    "solarCategory": "solid",
    "solarSunshineHours": 1211,
    "solarMaxPanels": 16,
    "hasSouthFacing": true,
    "createdAt": "2026-02-07T21:06:49.409Z"
  },
  {
    "id": "test-1770498409409-49",
    "name": "John Johnson",
    "address": "5015 Elm St",
    "city": "Rochester",
    "state": "NY",
    "zip": "14605",
    "phone": "(876) 807-2114",
    "estimatedBill": 135,
    "lat": 43.1576266,
    "lng": -77.609924,
    "status": "unclaimed",
    "solarScore": 76,
    "solarCategory": "great",
    "solarSunshineHours": 1207,
    "solarMaxPanels": 15,
    "hasSouthFacing": true,
    "createdAt": "2026-02-07T21:06:49.409Z"
  }
]